{
  "locations": [
    {
      "id": "0",
      "name": "Acme Fresh Start Housing",
      "city": "Chicago",
      "state": "IL",
      "photo": "https://angular.io/assets/images/tutorials/faa/bernard-hermant-CLKGGwIBTaY-unsplash.jpg",
      "availableUnits": 4,
      "wifi": true,
      "laundry": true,
      "securitySystems": [
        "Alarms",
        "Cameras",
        "Smoke detectors"
      ],
      "coordinates": {
        "latitude": 41.8781,
        "longitude": -87.6298
      },
      "status": "disponible"
    },
    {
      "id": "1",
      "name": "A113 Transitional Housingg",
      "city": "Santa Monica",
      "state": "CAA",
      "photo": "https://angular.io/assets/images/tutorials/faa/brandon-griggs-wR11KBaB86U-unsplash.jpg",
      "availableUnits": 0,
      "wifi": false,
      "laundry": true,
      "securitySystems": [
        "Reinforced doors",
        "Cameras"
      ],
      "status": "vendido"
    },
    {
      "id": "2",
      "name": "Warm Beds Housing Support",
      "city": "Juneau",
      "state": "AK",
      "photo": "https://angular.io/assets/images/tutorials/faa/i-do-nothing-but-love-lAyXdl1-Wmc-unsplash.jpg",
      "availableUnits": 1,
      "wifi": false,
      "laundry": false,
      "securitySystems": [
        "Smoke detectors"
      ],
      "coordinates": {
        "latitude": 58.3019,
        "longitude": -134.4197
      },
      "status": "disponible"
    },
    {
      "id": "3",
      "name": "Homesteady Housing",
      "city": "Chicago",
      "state": "IL",
      "photo": "https://angular.io/assets/images/tutorials/faa/ian-macdonald-W8z6aiwfi1E-unsplash.jpg",
      "availableUnits": 1,
      "wifi": true,
      "laundry": false,
      "securitySystems": [
        "Alarms",
        "Smoke detectors"
      ],
      "coordinates": {
        "latitude": 41.8781,
        "longitude": -87.6298
      },
      "status": "disponible"
    },
    {
      "id": "4",
      "name": "Happy Homes Group",
      "city": "Gary",
      "state": "IN",
      "photo": "https://angular.io/assets/images/tutorials/faa/krzysztof-hepner-978RAXoXnH4-unsplash.jpg",
      "availableUnits": 1,
      "wifi": true,
      "laundry": false,
      "securitySystems": [
        "Reinforced doors"
      ],
      "coordinates": {
        "latitude": 41.5934,
        "longitude": -87.346
      },
      "status": "disponible"
    },
    {
      "id": "5",
      "name": "Hopeful Apartment Group",
      "city": "Oakland",
      "state": "CA",
      "photo": "https://angular.io/assets/images/tutorials/faa/r-architecture-JvQ0Q5IkeMM-unsplash.jpg",
      "availableUnits": 2,
      "wifi": true,
      "laundry": true,
      "securitySystems": [
        "Cameras",
        "Alarms"
      ],
      "coordinates": {
        "latitude": 37.8044,
        "longitude": -122.2711
      },
      "status": "disponible"
    },
    {
      "id": "6",
      "name": "Seriously Safe Towns",
      "city": "Oakland",
      "state": "CA",
      "photo": "https://angular.io/assets/images/tutorials/faa/phil-hearing-IYfp2Ixe9nM-unsplash.jpg",
      "availableUnits": 5,
      "wifi": true,
      "laundry": true,
      "securitySystems": [
        "Cameras",
        "Reinforced doors",
        "Smoke detectors"
      ],
      "coordinates": {
        "latitude": 37.8044,
        "longitude": -122.2711
      },
      "status": "disponible"
    },
    {
      "id": "7",
      "name": "Hopeful Housing Solutions",
      "city": "Oakland",
      "state": "CA",
      "photo": "https://angular.io/assets/images/tutorials/faa/r-architecture-GGupkreKwxA-unsplash.jpg",
      "availableUnits": 2,
      "wifi": true,
      "laundry": true,
      "securitySystems": [
        "Alarms"
      ],
      "coordinates": {
        "latitude": 37.8044,
        "longitude": -122.2711
      },
      "status": "disponible"
    },
    {
      "id": "8",
      "name": "Seriously Safe Towns",
      "city": "Oakland",
      "state": "CA",
      "photo": "https://angular.io/assets/images/tutorials/faa/saru-robert-9rP3mxf8qWI-unsplash.jpg",
      "availableUnits": 10,
      "wifi": false,
      "laundry": false,
      "securitySystems": [
        "Smoke detectors",
        "Cameras"
      ],
      "coordinates": {
        "latitude": 37.8044,
        "longitude": -122.2711
      },
      "status": "disponible"
    },
    {
      "id": "9",
      "name": "Capital Safe Towns",
      "city": "Portland",
      "state": "OR",
      "photo": "https://angular.io/assets/images/tutorials/faa/webaliser-_TPTXZd9mOo-unsplash.jpg",
      "availableUnits": 6,
      "wifi": true,
      "laundry": true,
      "securitySystems": [
        "Reinforced doors",
        "Cameras",
        "Alarms",
        "Smoke detectors"
      ],
      "coordinates": {
        "latitude": 45.5051,
        "longitude": -122.675
      },
      "status": "disponible"
    },
    {
      "id": "91",
      "name": "Hotelazo la Roca Carioca",
      "city": "Málaga Sity",
      "state": "Wisconsin",
      "photo": "assets/noPhoto.webp",
      "availableUnits": 0,
      "wifi": true,
      "laundry": true,
      "securitySystems": [
        "alarms"
      ],
      "status": "reservado"
    },
    {
      "id": "911",
      "name": "Hotelazo la Roca Carioca 2",
      "city": "Málaga Sity 2",
      "state": "Benidorm",
      "photo": "assets/noPhoto.webp",
      "availableUnits": 2,
      "wifi": true,
      "laundry": true,
      "securitySystems": [
        "cameras"
      ],
      "status": "disponible"
    }
  ]
}